{"id": "rio_cristo_redentor_001", "city": "Rio de Janeiro", "type": "ponto_turistico", "name": "Cristo Redentor", "description": "Símbolo do Brasil e Patrimônio da Humanidade, localizado no topo do Morro do Corcovado. Oferece vistas panorâmicas do Rio de Janeiro.", "tags": ["cultural", "religioso", "vista"], "location": "Corcovado", "hours": "Diariamente 8h–18h", "price_range": "$$", "safety_tips": "Compre ingressos com antecedência e evite dias chuvosos.", "lang": "pt"}
{"id": "rio_pao_de_acucar_002", "city": "Rio de Janeiro", "type": "ponto_turistico", "name": "Pão de Açúcar", "description": "Cartão-postal do Rio, acessado por bondinho desde a Praia Vermelha. Ideal para vistas panorâmicas da cidade e das praias.", "tags": ["vista", "família", "cultural"], "location": "Urca", "hours": "Diariamente 8h–19h", "price_range": "$$", "safety_tips": "Leve protetor solar e água.", "lang": "pt"}
{"id": "rio_museu_do_amanha_003", "city": "Rio de Janeiro", "type": "ponto_turistico", "name": "Museu do Amanhã", "description": "Museu de ciência e inovação com foco em sustentabilidade e tecnologia, localizado na Praça Mauá.", "tags": ["cultural", "educativo"], "location": "Praça Mauá", "hours": "Terça a domingo 10h–17h", "price_range": "$", "safety_tips": "Prefira visitar de dia e em grupo.", "lang": "pt"}
{"id": "rio_maracana_004", "city": "Rio de Janeiro", "type": "ponto_turistico", "name": "Estádio do Maracanã", "description": "Um dos estádios de futebol mais famosos do mundo, oferece visitas guiadas e eventos esportivos.", "tags": ["esporte", "cultural"], "location": "Maracanã", "hours": "Visitação 9h–17h", "price_range": "$$", "safety_tips": "Evite grandes aglomerações em dias de jogos.", "lang": "pt"}
{"id": "rio_lapa_005", "city": "Rio de Janeiro", "type": "ponto_turistico", "name": "Arcos da Lapa", "description": "Antigo aqueduto que se tornou ponto central da vida noturna carioca, com bares e casas de show ao redor.", "tags": ["história", "vida noturna"], "location": "Lapa", "hours": "Livre acesso", "price_range": "free", "safety_tips": "Cuidado com pertences à noite.", "lang": "pt"}
{"id": "rio_ipanema_006", "city": "Rio de Janeiro", "type": "ponto_turistico", "name": "Praia de Ipanema", "description": "Uma das praias mais famosas do mundo, conhecida pelo pôr do sol no Arpoador.", "tags": ["praia", "família", "lazer"], "location": "Ipanema", "hours": "24h", "price_range": "free", "safety_tips": "Não deixe objetos desacompanhados na areia.", "lang": "pt"}
{"id": "rio_churrascaria_palace_007", "city": "Rio de Janeiro", "type": "restaurante", "name": "Churrascaria Palace", "description": "Rodízio de carnes nobres tradicional em Copacabana, referência gastronômica da cidade.", "tags": ["gastronomia", "carnes"], "location": "Copacabana", "hours": "Diariamente 12h–23h", "price_range": "$$$", "safety_tips": "Faça reserva antecipada em finais de semana.", "lang": "pt"}
{"id": "rio_confeitaria_colombo_008", "city": "Rio de Janeiro", "type": "restaurante", "name": "Confeitaria Colombo", "description": "Fundada em 1894, é um ícone da Belle Époque carioca, famosa por doces e cafés.", "tags": ["gastronomia", "história"], "location": "Centro", "hours": "Segunda a sábado 9h–18h", "price_range": "$$", "safety_tips": "Combine a visita com outros pontos do Centro.", "lang": "pt"}
{"id": "rio_carnaval_009", "city": "Rio de Janeiro", "type": "evento", "name": "Carnaval do Rio", "description": "Maior festa popular do Brasil, com desfiles das escolas de samba no Sambódromo e blocos de rua pela cidade.", "tags": ["evento", "cultural", "festa"], "location": "Sambódromo/ruas", "hours": "Fevereiro (datas variam)", "price_range": "$$-$$$", "safety_tips": "Mantenha seus pertences seguros em blocos de rua.", "lang": "pt"}
{"id": "rio_rock_in_rio_010", "city": "Rio de Janeiro", "type": "evento", "name": "Rock in Rio", "description": "Festival de música internacional realizado a cada dois anos, reunindo artistas de renome mundial.", "tags": ["evento", "música"], "location": "Parque Olímpico", "hours": "Setembro (datas variam)", "price_range": "$$$", "safety_tips": "Chegue cedo para evitar filas.", "lang": "pt"}
{"id": "ams_rijksmuseum_001", "city": "Amsterdã", "type": "ponto_turistico", "name": "Rijksmuseum", "description": "Museu de arte mais importante da Holanda, com obras de Rembrandt e Vermeer.", "tags": ["arte", "história", "cultural"], "location": "Museumplein", "hours": "Diariamente 9h–17h", "price_range": "$$", "safety_tips": "Compre ingressos online para evitar filas.", "lang": "pt"}
{"id": "ams_van_gogh_002", "city": "Amsterdã", "type": "ponto_turistico", "name": "Museu Van Gogh", "description": "Museu dedicado à vida e obra de Vincent van Gogh, com a maior coleção do artista no mundo.", "tags": ["arte", "cultural"], "location": "Museumplein", "hours": "Diariamente 9h–18h", "price_range": "$$", "safety_tips": "Ingressos esgotam rápido, compre antecipado.", "lang": "pt"}
{"id": "ams_casa_anne_frank_003", "city": "Amsterdã", "type": "ponto_turistico", "name": "Casa de Anne Frank", "description": "Museu histórico dedicado ao diário de Anne Frank e à memória do Holocausto.", "tags": ["história", "cultural"], "location": "Prinsengracht", "hours": "Diariamente 9h–22h", "price_range": "$$", "safety_tips": "Chegue com hora marcada, as filas são longas.", "lang": "pt"}
{"id": "ams_canais_004", "city": "Amsterdã", "type": "ponto_turistico", "name": "Canais de Amsterdã", "description": "Rede de canais considerada Patrimônio da Humanidade, ideal para passeios de barco.", "tags": ["lazer", "romântico"], "location": "Centro", "hours": "Passeios diários variados", "price_range": "$$", "safety_tips": "Reserve passeios com empresas confiáveis.", "lang": "pt"}
{"id": "ams_vondelpark_005", "city": "Amsterdã", "type": "ponto_turistico", "name": "Vondelpark", "description": "Parque mais famoso de Amsterdã, usado por moradores e turistas para caminhadas, piqueniques e shows ao ar livre.", "tags": ["natureza", "família"], "location": "Amsterdam-Zuid", "hours": "24h", "price_range": "free", "safety_tips": "Fique atento aos ciclistas dentro do parque.", "lang": "pt"}
{"id": "ams_heineken_006", "city": "Amsterdã", "type": "ponto_turistico", "name": "Heineken Experience", "description": "Antiga cervejaria transformada em museu interativo sobre a marca Heineken.", "tags": ["gastronomia", "cultural"], "location": "Stadhouderskade", "hours": "Diariamente 10h30–19h30", "price_range": "$$", "safety_tips": "Evite horários de pico à tarde.", "lang": "pt"}
{"id": "ams_cafe_winkel_43_007", "city": "Amsterdã", "type": "restaurante", "name": "Café Winkel 43", "description": "Café famoso pela torta de maçã, localizado no bairro Jordaan.", "tags": ["cafés", "gastronomia"], "location": "Jordaan", "hours": "Segunda a domingo 8h–20h", "price_range": "$", "safety_tips": "O espaço é pequeno, chegue cedo.", "lang": "pt"}
{"id": "ams_restaurante_daalder_008", "city": "Amsterdã", "type": "restaurante", "name": "Restaurant Daalder", "description": "Restaurante estrelado Michelin que oferece menus degustação criativos.", "tags": ["gastronomia", "gourmet"], "location": "Jordaan", "hours": "Quarta a domingo 18h–23h", "price_range": "$$$", "safety_tips": "Faça reserva com semanas de antecedência.", "lang": "pt"}
{"id": "ams_kings_day_009", "city": "Amsterdã", "type": "evento", "name": "King’s Day", "description": "Feriado nacional em 27 de abril, com festas de rua, barcos nos canais e música ao vivo celebrando o aniversário do rei.", "tags": ["evento", "festa"], "location": "Centro da cidade", "hours": "27 de abril (o dia todo)", "price_range": "free", "safety_tips": "A cidade fica lotada, chegue cedo e mantenha documentos seguros.", "lang": "pt"}
{"id": "ams_amsterdam_dance_event_010", "city": "Amsterdã", "type": "evento", "name": "Amsterdam Dance Event", "description": "Maior festival de música eletrônica do mundo, reunindo DJs internacionais em outubro.", "tags": ["evento", "música"], "location": "Diversos clubes", "hours": "Outubro (datas variam)", "price_range": "$$-$$$", "safety_tips": "Compre ingressos oficiais para evitar fraudes.", "lang": "pt"}
